{
  "plus_code" : {
    "compound_code" : "WJPG+QV Bengaluru, Karnataka, India",
    "global_code" : "7J4VWJPG+QV"
  },
  "results" : [
    {
      "address_components" : [
        {
          "long_name" : "606",
          "short_name" : "606",
          "types" : [ "street_number" ]
        },
        {
          "long_name" : "Srinivagilu Main Road",
          "short_name" : "Srinivagilu Main Rd",
          "types" : [ "route" ]
        },
        {
          "long_name" : "Koramangala 4th Block",
          "short_name" : "Koramangala 4th Block",
          "types" : [ "political", "sublocality", "sublocality_level_2" ]
        },
        {
          "long_name" : "Koramangala",
          "short_name" : "Koramangala",
          "types" : [ "political", "sublocality", "sublocality_level_1" ]
        },
        {
          "long_name" : "Bengaluru",
          "short_name" : "Bengaluru",
          "types" : [ "locality", "political" ]
        },
        {
          "long_name" : "Bangalore Urban",
          "short_name" : "Bangalore Urban",
          "types" : [ "administrative_area_level_2", "political" ]
        },
        {
          "long_name" : "Karnataka",
          "short_name" : "KA",
          "types" : [ "administrative_area_level_1", "political" ]
        },
        {
          "long_name" : "India",
          "short_name" : "IN",
          "types" : [ "country", "political" ]
        },
        {
          "long_name" : "560095",
          "short_name" : "560095",
          "types" : [ "postal_code" ]
        }
      ],
      "formatted_address" : "606, Srinivagilu Main Rd, Koramangala 4th Block, Koramangala, Bengaluru, Karnataka 560095, India",
      "geometry" : {
        "location" : {
          "lat" : 12.93684,
          "lng" : 77.62698499999999
        },
        "location_type" : "ROOFTOP",
        "viewport" : {
          "northeast" : {
            "lat" : 12.9381889802915,
            "lng" : 77.6283339802915
          },
          "southwest" : {
            "lat" : 12.9354910197085,
            "lng" : 77.62563601970848
          }
        }
      },
      "place_id" : "ChIJkY9PEEMUrjsR1wPhhBl245w",
      "plus_code" : {
        "compound_code" : "WJPG+PQ Bengaluru, Karnataka, India",
        "global_code" : "7J4VWJPG+PQ"
      },
      "types" : [ "street_address" ]
    },
    {
      "address_components" : [
        {
          "long_name" : "No. 606",
          "short_name" : "No. 606",
          "types" : [ "street_number" ]
        },
        {
          "long_name" : "80 Feet Road",
          "short_name" : "80 Feet Rd",
          "types" : [ "route" ]
        },
        {
          "long_name" : "Koramangala 4th Block",
          "short_name" : "Koramangala 4th Block",
          "types" : [ "political", "sublocality", "sublocality_level_2" ]
        },
        {
          "long_name" : "Koramangala",
          "short_name" : "Koramangala",
          "types" : [ "political", "sublocality", "sublocality_level_1" ]
        },
        {
          "long_name" : "Bengaluru",
          "short_name" : "Bengaluru",
          "types" : [ "locality", "political" ]
        },
        {
          "long_name" : "Bangalore Urban",
          "short_name" : "Bangalore Urban",
          "types" : [ "administrative_area_level_2", "political" ]
        },
        {
          "long_name" : "Karnataka",
          "short_name" : "KA",
          "types" : [ "administrative_area_level_1", "political" ]
        },
        {
          "long_name" : "India",
          "short_name" : "IN",
          "types" : [ "country", "political" ]
        },
        {
          "long_name" : "560034",
          "short_name" : "560034",
          "types" : [ "postal_code" ]
        }
      ],
      "formatted_address" : "No. 606, 80 Feet Rd, Koramangala 4th Block, Koramangala, Bengaluru, Karnataka 560034, India",
      "geometry" : {
        "bounds" : {
          "northeast" : {
            "lat" : 12.9369521,
            "lng" : 77.6270981
          },
          "southwest" : {
            "lat" : 12.9367355,
            "lng" : 77.62686699999999
          }
        },
        "location" : {
          "lat" : 12.9368586,
          "lng" : 77.6269621
        },
        "location_type" : "ROOFTOP",
        "viewport" : {
          "northeast" : {
            "lat" : 12.93819278029151,
            "lng" : 77.6283315302915
          },
          "southwest" : {
            "lat" : 12.9354948197085,
            "lng" : 77.62563356970848
          }
        }
      },
      "place_id" : "ChIJKXBSEEMUrjsRzcNbWC7nT4Q",
      "types" : [ "premise" ]
    },
    {
      "address_components" : [
        {
          "long_name" : "Sony World 80ft Road Koramangala",
          "short_name" : "Sony World 80ft Road Koramangala",
          "types" : [ "establishment", "point_of_interest", "transit_station" ]
        },
        {
          "long_name" : "Koramangala 4th Block",
          "short_name" : "Koramangala 4th Block",
          "types" : [ "political", "sublocality", "sublocality_level_2" ]
        },
        {
          "long_name" : "Koramangala",
          "short_name" : "Koramangala",
          "types" : [ "political", "sublocality", "sublocality_level_1" ]
        },
        {
          "long_name" : "Bengaluru",
          "short_name" : "Bengaluru",
          "types" : [ "locality", "political" ]
        },
        {
          "long_name" : "Bangalore Urban",
          "short_name" : "Bangalore Urban",
          "types" : [ "administrative_area_level_2", "political" ]
        },
        {
          "long_name" : "Karnataka",
          "short_name" : "KA",
          "types" : [ "administrative_area_level_1", "political" ]
        },
        {
          "long_name" : "India",
          "short_name" : "IN",
          "types" : [ "country", "political" ]
        },
        {
          "long_name" : "560095",
          "short_name" : "560095",
          "types" : [ "postal_code" ]
        }
      ],
      "formatted_address" : "Sony World 80ft Road Koramangala, Koramangala 4th Block, Koramangala, Bengaluru, Karnataka 560095, India",
      "geometry" : {
        "location" : {
          "lat" : 12.936764,
          "lng" : 77.627313
        },
        "location_type" : "GEOMETRIC_CENTER",
        "viewport" : {
          "northeast" : {
            "lat" : 12.9381129802915,
            "lng" : 77.62866198029151
          },
          "southwest" : {
            "lat" : 12.9354150197085,
            "lng" : 77.6259640197085
          }
        }
      },
      "place_id" : "ChIJO5-tG0MUrjsR-yhiy7bJpaY",
      "plus_code" : {
        "compound_code" : "WJPG+PW Bengaluru, Karnataka, India",
        "global_code" : "7J4VWJPG+PW"
      },
      "types" : [ "establishment", "point_of_interest", "transit_station" ]
    },
    {
      "address_components" : [
        {
          "long_name" : "606",
          "short_name" : "606",
          "types" : [ "street_number" ]
        },
        {
          "long_name" : "80 Feet Road",
          "short_name" : "80 Feet Rd",
          "types" : [ "route" ]
        },
        {
          "long_name" : "6th Block",
          "short_name" : "6th Block",
          "types" : [ "political", "sublocality", "sublocality_level_2" ]
        },
        {
          "long_name" : "Koramangala",
          "short_name" : "Koramangala",
          "types" : [ "political", "sublocality", "sublocality_level_1" ]
        },
        {
          "long_name" : "Bengaluru",
          "short_name" : "Bengaluru",
          "types" : [ "locality", "political" ]
        },
        {
          "long_name" : "Bangalore Urban",
          "short_name" : "Bangalore Urban",
          "types" : [ "administrative_area_level_2", "political" ]
        },
        {
          "long_name" : "Karnataka",
          "short_name" : "KA",
          "types" : [ "administrative_area_level_1", "political" ]
        },
        {
          "long_name" : "India",
          "short_name" : "IN",
          "types" : [ "country", "political" ]
        },
        {
          "long_name" : "560095",
          "short_name" : "560095",
          "types" : [ "postal_code" ]
        }
      ],
      "formatted_address" : "606, 80 Feet Rd, 6th Block, Koramangala, Bengaluru, Karnataka 560095, India",
      "geometry" : {
        "location" : {
          "lat" : 12.9369652,
          "lng" : 77.6271246
        },
        "location_type" : "RANGE_INTERPOLATED",
        "viewport" : {
          "northeast" : {
            "lat" : 12.9383141802915,
            "lng" : 77.62847358029151
          },
          "southwest" : {
            "lat" : 12.9356162197085,
            "lng" : 77.62577561970851
          }
        }
      },
      "place_id" : "Eks2MDYsIDgwIEZlZXQgUmQsIDZ0aCBCbG9jaywgS29yYW1hbmdhbGEsIEJlbmdhbHVydSwgS2FybmF0YWthIDU2MDA5NSwgSW5kaWEiGxIZChQKEgm5LLcbQxSuOxFGNKW5aBiAfxDeBA",
      "types" : [ "street_address" ]
    },
    {
      "address_components" : [
        {
          "long_name" : "612-605",
          "short_name" : "612-605",
          "types" : [ "street_number" ]
        },
        {
          "long_name" : "80 Feet Road",
          "short_name" : "80 Feet Rd",
          "types" : [ "route" ]
        },
        {
          "long_name" : "6th Block",
          "short_name" : "6th Block",
          "types" : [ "political", "sublocality", "sublocality_level_2" ]
        },
        {
          "long_name" : "Koramangala",
          "short_name" : "Koramangala",
          "types" : [ "political", "sublocality", "sublocality_level_1" ]
        },
        {
          "long_name" : "Bengaluru",
          "short_name" : "Bengaluru",
          "types" : [ "locality", "political" ]
        },
        {
          "long_name" : "Bangalore Urban",
          "short_name" : "Bangalore Urban",
          "types" : [ "administrative_area_level_2", "political" ]
        },
        {
          "long_name" : "Karnataka",
          "short_name" : "KA",
          "types" : [ "administrative_area_level_1", "political" ]
        },
        {
          "long_name" : "India",
          "short_name" : "IN",
          "types" : [ "country", "political" ]
        },
        {
          "long_name" : "560095",
          "short_name" : "560095",
          "types" : [ "postal_code" ]
        }
      ],
      "formatted_address" : "612-605, 80 Feet Rd, 6th Block, Koramangala, Bengaluru, Karnataka 560095, India",
      "geometry" : {
        "bounds" : {
          "northeast" : {
            "lat" : 12.9371778,
            "lng" : 77.6277937
          },
          "southwest" : {
            "lat" : 12.9362912,
            "lng" : 77.62692370000001
          }
        },
        "location" : {
          "lat" : 12.936728,
          "lng" : 77.6273518
        },
        "location_type" : "GEOMETRIC_CENTER",
        "viewport" : {
          "northeast" : {
            "lat" : 12.9380834802915,
            "lng" : 77.62870768029151
          },
          "southwest" : {
            "lat" : 12.9353855197085,
            "lng" : 77.62600971970849
          }
        }
      },
      "place_id" : "ChIJuSy3G0MUrjsRRjSluWgYgH8",
      "types" : [ "route" ]
    },
    {
      "address_components" : [
        {
          "long_name" : "Koramangala 4th Block",
          "short_name" : "Koramangala 4th Block",
          "types" : [ "political", "sublocality", "sublocality_level_2" ]
        },
        {
          "long_name" : "Koramangala",
          "short_name" : "Koramangala",
          "types" : [ "political", "sublocality", "sublocality_level_1" ]
        },
        {
          "long_name" : "Bengaluru",
          "short_name" : "Bengaluru",
          "types" : [ "locality", "political" ]
        },
        {
          "long_name" : "Bangalore Urban",
          "short_name" : "Bangalore Urban",
          "types" : [ "administrative_area_level_2", "political" ]
        },
        {
          "long_name" : "Karnataka",
          "short_name" : "KA",
          "types" : [ "administrative_area_level_1", "political" ]
        },
        {
          "long_name" : "India",
          "short_name" : "IN",
          "types" : [ "country", "political" ]
        }
      ],
      "formatted_address" : "Koramangala 4th Block, Koramangala, Bengaluru, Karnataka, India",
      "geometry" : {
        "bounds" : {
          "northeast" : {
            "lat" : 12.9372496,
            "lng" : 77.6330858
          },
          "southwest" : {
            "lat" : 12.9294766,
            "lng" : 77.62433999999999
          }
        },
        "location" : {
          "lat" : 12.9314583,
          "lng" : 77.6299858
        },
        "location_type" : "APPROXIMATE",
        "viewport" : {
          "northeast" : {
            "lat" : 12.9372496,
            "lng" : 77.6330858
          },
          "southwest" : {
            "lat" : 12.9294766,
            "lng" : 77.62433999999999
          }
        }
      },
      "place_id" : "ChIJ5TEzjlwUrjsR9PYhJeA9_Wo",
      "types" : [ "political", "sublocality", "sublocality_level_2" ]
    },
    {
      "address_components" : [
        {
          "long_name" : "560095",
          "short_name" : "560095",
          "types" : [ "postal_code" ]
        },
        {
          "long_name" : "Bengaluru",
          "short_name" : "Bengaluru",
          "types" : [ "locality", "political" ]
        },
        {
          "long_name" : "Bangalore Urban",
          "short_name" : "Bangalore Urban",
          "types" : [ "administrative_area_level_2", "political" ]
        },
        {
          "long_name" : "Karnataka",
          "short_name" : "KA",
          "types" : [ "administrative_area_level_1", "political" ]
        },
        {
          "long_name" : "India",
          "short_name" : "IN",
          "types" : [ "country", "political" ]
        }
      ],
      "formatted_address" : "Bengaluru, Karnataka 560095, India",
      "geometry" : {
        "bounds" : {
          "northeast" : {
            "lat" : 12.9458159,
            "lng" : 77.6534374
          },
          "southwest" : {
            "lat" : 12.9288075,
            "lng" : 77.6153424
          }
        },
        "location" : {
          "lat" : 12.9369154,
          "lng" : 77.6407258
        },
        "location_type" : "APPROXIMATE",
        "viewport" : {
          "northeast" : {
            "lat" : 12.9458159,
            "lng" : 77.6534374
          },
          "southwest" : {
            "lat" : 12.9288075,
            "lng" : 77.6153424
          }
        }
      },
      "place_id" : "ChIJ6QyWb2kUrjsRTXut6nX0evo",
      "types" : [ "postal_code" ]
    },
    {
      "address_components" : [
        {
          "long_name" : "Koramangala",
          "short_name" : "Koramangala",
          "types" : [ "political", "sublocality", "sublocality_level_1" ]
        },
        {
          "long_name" : "Bengaluru",
          "short_name" : "Bengaluru",
          "types" : [ "locality", "political" ]
        },
        {
          "long_name" : "Bangalore Urban",
          "short_name" : "Bangalore Urban",
          "types" : [ "administrative_area_level_2", "political" ]
        },
        {
          "long_name" : "Karnataka",
          "short_name" : "KA",
          "types" : [ "administrative_area_level_1", "political" ]
        },
        {
          "long_name" : "India",
          "short_name" : "IN",
          "types" : [ "country", "political" ]
        }
      ],
      "formatted_address" : "Koramangala, Bengaluru, Karnataka, India",
      "geometry" : {
        "bounds" : {
          "northeast" : {
            "lat" : 12.949918,
            "lng" : 77.6541309
          },
          "southwest" : {
            "lat" : 12.9209839,
            "lng" : 77.610254
          }
        },
        "location" : {
          "lat" : 12.9351929,
          "lng" : 77.62448069999999
        },
        "location_type" : "APPROXIMATE",
        "viewport" : {
          "northeast" : {
            "lat" : 12.949918,
            "lng" : 77.6541309
          },
          "southwest" : {
            "lat" : 12.9209839,
            "lng" : 77.610254
          }
        }
      },
      "place_id" : "ChIJLfyY2E4UrjsRVq4AjI7zgRY",
      "types" : [ "political", "sublocality", "sublocality_level_1" ]
    },
    {
      "address_components" : [
        {
          "long_name" : "Bengaluru",
          "short_name" : "Bengaluru",
          "types" : [ "locality", "political" ]
        },
        {
          "long_name" : "Bangalore Urban",
          "short_name" : "Bangalore Urban",
          "types" : [ "administrative_area_level_2", "political" ]
        },
        {
          "long_name" : "Karnataka",
          "short_name" : "KA",
          "types" : [ "administrative_area_level_1", "political" ]
        },
        {
          "long_name" : "India",
          "short_name" : "IN",
          "types" : [ "country", "political" ]
        }
      ],
      "formatted_address" : "Bengaluru, Karnataka, India",
      "geometry" : {
        "bounds" : {
          "northeast" : {
            "lat" : 13.173706,
            "lng" : 77.8826809
          },
          "southwest" : {
            "lat" : 12.7342888,
            "lng" : 77.3791981
          }
        },
        "location" : {
          "lat" : 12.9715987,
          "lng" : 77.5945627
        },
        "location_type" : "APPROXIMATE",
        "viewport" : {
          "northeast" : {
            "lat" : 13.173706,
            "lng" : 77.8826809
          },
          "southwest" : {
            "lat" : 12.7342888,
            "lng" : 77.3791981
          }
        }
      },
      "place_id" : "ChIJbU60yXAWrjsR4E9-UejD3_g",
      "types" : [ "locality", "political" ]
    },
    {
      "address_components" : [
        {
          "long_name" : "Bangalore Urban",
          "short_name" : "Bangalore Urban",
          "types" : [ "administrative_area_level_2", "political" ]
        },
        {
          "long_name" : "Karnataka",
          "short_name" : "KA",
          "types" : [ "administrative_area_level_1", "political" ]
        },
        {
          "long_name" : "India",
          "short_name" : "IN",
          "types" : [ "country", "political" ]
        }
      ],
      "formatted_address" : "Bangalore Urban, Karnataka, India",
      "geometry" : {
        "bounds" : {
          "northeast" : {
            "lat" : 13.22497,
            "lng" : 77.83501
          },
          "southwest" : {
            "lat" : 12.65785,
            "lng" : 77.32867
          }
        },
        "location" : {
          "lat" : 12.9700247,
          "lng" : 77.65361249999999
        },
        "location_type" : "APPROXIMATE",
        "viewport" : {
          "northeast" : {
            "lat" : 13.22497,
            "lng" : 77.83501
          },
          "southwest" : {
            "lat" : 12.65785,
            "lng" : 77.32867
          }
        }
      },
      "place_id" : "ChIJ_Q7NCkQWrjsRn2yP7O-T8Fg",
      "types" : [ "administrative_area_level_2", "political" ]
    },
    {
      "address_components" : [
        {
          "long_name" : "Karnataka",
          "short_name" : "KA",
          "types" : [ "administrative_area_level_1", "political" ]
        },
        {
          "long_name" : "India",
          "short_name" : "IN",
          "types" : [ "country", "political" ]
        }
      ],
      "formatted_address" : "Karnataka, India",
      "geometry" : {
        "bounds" : {
          "northeast" : {
            "lat" : 18.4411689,
            "lng" : 78.5881402
          },
          "southwest" : {
            "lat" : 11.593352,
            "lng" : 74.04960609999999
          }
        },
        "location" : {
          "lat" : 15.3172775,
          "lng" : 75.7138884
        },
        "location_type" : "APPROXIMATE",
        "viewport" : {
          "northeast" : {
            "lat" : 18.4411689,
            "lng" : 78.5881402
          },
          "southwest" : {
            "lat" : 11.593352,
            "lng" : 74.04960609999999
          }
        }
      },
      "place_id" : "ChIJj0i_N0xaozsR1Xx10YzS8UE",
      "types" : [ "administrative_area_level_1", "political" ]
    },
    {
      "address_components" : [
        {
          "long_name" : "India",
          "short_name" : "IN",
          "types" : [ "country", "political" ]
        }
      ],
      "formatted_address" : "India",
      "geometry" : {
        "bounds" : {
          "northeast" : {
            "lat" : 35.513327,
            "lng" : 97.39535869999999
          },
          "southwest" : {
            "lat" : 6.4626999,
            "lng" : 68.1097
          }
        },
        "location" : {
          "lat" : 20.593684,
          "lng" : 78.96288
        },
        "location_type" : "APPROXIMATE",
        "viewport" : {
          "northeast" : {
            "lat" : 35.513327,
            "lng" : 97.39535869999999
          },
          "southwest" : {
            "lat" : 6.4626999,
            "lng" : 68.1097
          }
        }
      },
      "place_id" : "ChIJkbeSa_BfYzARphNChaFPjNc",
      "types" : [ "country", "political" ]
    }
  ],
  "status" : "OK"
}